City_ID,City,Lat,Lng,Max Temp,Humidity,Cloudiness,Wind Speed,Country,Date
0,blackmans bay,-43.0167,147.3167,50.13,92,6,4.97,AU,1699284434
1,ushuaia,-54.8,-68.3,55.06,44,40,13.8,AR,1699284349
2,shahr-e babak,30.1165,55.1186,58.87,40,5,3.58,IR,1699284435
3,stanley,54.868,-1.6985,49.19,85,40,9.22,GB,1699284435
4,ilulissat,69.2167,-51.1,26.62,46,75,18.41,GL,1699284435
5,hithadhoo,-0.6,73.0833,81.27,79,100,10.96,MV,1699284435
6,farah,32.5,62.5,61.97,58,84,1.54,AF,1699284435
7,bel ombre,-4.6167,55.4167,80.44,83,20,3.44,SC,1699284436
8,daru,-9.0763,143.2092,78.08,80,97,12.77,PG,1699284436
9,valparaiso,-33.0393,-71.6273,62.47,69,100,10.36,CL,1699284436
10,saudarkrokur,65.7461,-19.6394,34.99,78,100,3.89,IS,1699284437
11,petropavlovsk-kamchatsky,53.0452,158.6483,23.45,72,40,10.0,RU,1699284437
12,georgetown,5.4112,100.3354,82.33,86,20,4.61,MY,1699284379
13,richards bay,-28.783,32.0377,78.01,73,66,17.4,ZA,1699284437
14,college,64.8569,-147.8028,19.35,88,100,0.0,US,1699284438
15,grytviken,-54.2811,-36.5092,37.71,89,40,1.12,GS,1699284438
16,ambon,-3.6954,128.1814,78.94,89,40,8.05,ID,1699284438
17,katsuren-haebaru,26.3369,127.8719,77.77,88,75,12.66,JP,1699284438
18,matoury,4.8483,-52.3317,91.36,62,20,14.97,GF,1699284439
19,puerto natales,-51.7236,-72.4875,59.45,36,0,21.85,CL,1699284439
20,port-aux-francais,-49.35,70.2167,36.01,75,37,36.39,TF,1699284439
21,st. john's,47.5649,-52.7093,37.98,59,75,20.71,CA,1699284268
22,adamstown,-25.066,-130.1015,73.09,79,98,17.07,PN,1699284440
23,lihue,21.9789,-159.3672,76.59,87,100,14.97,US,1699284440
24,la passe,45.5549,-0.8967,54.99,73,13,23.64,FR,1699284441
25,isafjordur,66.0755,-23.124,33.84,69,75,16.11,IS,1699284441
26,afaahiti,-17.75,-149.2833,73.27,85,49,11.01,PF,1699284441
27,bilibino,68.0546,166.4372,-11.02,98,29,5.82,RU,1699284441
28,manggar,-2.8833,108.2667,82.51,74,97,3.94,ID,1699284442
29,wailua homesteads,22.0669,-159.378,75.99,90,100,14.97,US,1699284442
30,sitka,57.0531,-135.33,46.29,81,100,12.66,US,1699284442
31,cockburn town,21.4612,-71.1419,81.86,70,100,8.77,TC,1699284442
32,mildura,-34.2,142.15,71.26,23,100,9.22,AU,1699284442
33,ust-nera,64.5667,143.2,-16.24,100,84,3.24,RU,1699284443
34,chingirlau,51.095,54.0814,48.04,64,99,11.43,KZ,1699284443
35,kalmunai,7.4167,81.8167,80.78,81,84,4.32,LK,1699284443
36,nemuro,43.3236,145.575,59.07,93,100,31.43,JP,1699284145
37,invercargill,-46.4,168.35,42.03,89,73,2.91,NZ,1699284444
38,waitangi,-43.9535,-176.5597,52.83,96,100,7.0,NZ,1699284444
39,patnanungan,14.7833,122.1833,81.46,83,74,17.47,PH,1699284444
40,hamilton,39.1834,-84.5333,59.05,56,75,9.22,US,1699284186
41,utrik,11.2278,169.8474,82.18,71,100,20.85,MH,1699284445
42,edinburgh of the seven seas,-37.0676,-12.3116,57.63,96,100,26.66,SH,1699284326
43,talnakh,69.4865,88.3972,0.05,97,96,6.15,RU,1699284446
44,gaspe,48.8334,-64.4819,35.82,44,20,16.11,CA,1699284446
45,ola,59.5833,151.2833,7.16,77,1,10.92,RU,1699284446
46,anadyr,64.75,177.4833,5.5,84,0,11.18,RU,1699284446
47,katsuura,35.1333,140.3,72.66,85,100,27.85,JP,1699284446
48,port elizabeth,-33.918,25.5701,64.69,92,100,13.8,ZA,1699284447
49,whitehorse,60.7161,-135.0538,29.17,86,75,12.66,CA,1699284447
50,lazaro cardenas,17.9583,-102.2,80.67,77,59,3.71,MX,1699284447
51,albany,42.6001,-73.9662,45.68,65,59,1.99,US,1699284241
52,nar'yan-mar,67.6713,53.087,35.11,100,100,20.0,RU,1699284448
53,podgornoye,51.735,39.1496,55.65,94,0,6.71,RU,1699284448
54,cape coast,5.1053,-1.2466,83.53,77,42,10.94,GH,1699284448
55,edmundston,47.3737,-68.3251,30.43,63,0,1.14,CA,1699284397
56,xinxiang,35.3089,113.8672,48.52,44,0,3.47,CN,1699284449
57,vilhena,-12.7406,-60.1458,100.04,27,35,1.59,BR,1699284449
58,muli,2.9167,73.5667,81.36,79,74,8.59,MV,1699284449
59,west island,-12.1568,96.8225,78.78,78,40,16.11,CC,1699284450
60,caleta de carquin,-11.0925,-77.6267,69.37,76,67,7.81,PE,1699284450
61,ixtapa-zihuatanejo,17.6333,-101.55,86.09,66,0,0.0,MX,1699284450
62,saipan,15.1355,145.701,81.3,83,0,10.36,MP,1699284451
63,enewetak,11.3474,162.3373,82.72,78,100,19.62,MH,1699284451
64,sao lourenco do sul,-31.3653,-51.9783,69.87,62,0,12.15,BR,1699284451
65,dudinka,69.4058,86.1778,-5.69,100,33,2.39,RU,1699284451
66,kerikeri,-35.2268,173.9474,45.91,89,1,4.79,NZ,1699284452
67,linxia chengguanzhen,35.6003,103.2064,42.76,37,3,1.07,CN,1699284452
68,corner brook,48.9667,-57.9484,33.96,52,27,16.02,CA,1699284276
69,zhangye,38.9342,100.4517,39.04,29,26,4.09,CN,1699284452
70,motueka,-41.1333,173.0167,50.09,91,33,5.03,NZ,1699284453
71,umm kaddadah,13.6017,26.6876,93.27,15,41,12.46,SD,1699284321
72,gadzhiyevo,69.2551,33.3362,33.17,84,94,8.88,RU,1699284454
73,chake chake,-5.2459,39.7666,80.02,82,52,6.64,TZ,1699284455
74,qaqortoq,60.7167,-46.0333,32.18,56,100,15.41,GL,1699284455
75,bredasdorp,-34.5322,20.0403,68.67,58,100,16.44,ZA,1699284456
76,aasiaat,68.7098,-52.8699,12.36,85,100,6.89,GL,1699284456
77,khovd,48.0056,91.6419,19.36,55,31,2.3,MN,1699284456
78,itoman,26.1247,127.6694,77.77,86,75,20.71,JP,1699284456
79,port mathurin,-19.6833,63.4167,77.09,76,8,7.7,MU,1699284457
80,thompson,55.7435,-97.8558,14.16,85,100,4.61,CA,1699284457
81,amboasary,-25.0333,46.3833,75.94,76,43,10.36,MG,1699284457
82,ghat,24.9647,10.1728,88.23,9,0,9.69,LY,1699284458
83,saynshand,44.8824,110.1163,21.43,63,5,8.99,MN,1699284458
84,northam,51.0333,-4.2167,52.61,80,14,17.98,GB,1699284458
85,weno,7.4515,151.8468,82.35,83,100,4.61,FM,1699284458
86,avarua,-21.2078,-159.775,71.65,64,75,11.5,CK,1699284458
87,taulaga,-11.0553,-171.0883,82.02,80,100,14.67,AS,1699284459
88,gizo,-8.103,156.8419,81.05,82,99,6.46,SB,1699284459
89,nema,57.5067,50.5011,41.13,84,93,11.36,RU,1699284459
90,florence,43.7667,11.25,67.68,56,40,11.5,IT,1699284177
91,yuzhno-kurilsk,44.0306,145.8556,59.38,95,100,24.32,RU,1699284460
92,laojunmiao,39.8333,97.7333,34.95,37,100,4.32,CN,1699284460
93,binji,13.2228,4.9096,100.42,11,6,10.33,NG,1699284460
94,margate,51.3813,1.3862,55.9,67,11,5.99,GB,1699284461
95,yellowknife,62.456,-114.3525,20.41,97,100,13.8,CA,1699284248
96,hawaiian paradise park,19.5933,-154.9731,70.03,97,100,5.75,US,1699284461
97,tralee,52.2704,-9.7026,50.25,76,75,12.66,IE,1699284461
98,acajutla,13.5928,-89.8275,81.48,78,100,7.23,SV,1699284462
99,kruisfontein,-34.0033,24.7314,66.02,70,92,12.41,ZA,1699284462
100,lebu,-37.6167,-73.65,57.97,72,100,13.33,CL,1699284462
101,bethel,41.3712,-73.414,51.21,63,40,5.75,US,1699284427
102,longyearbyen,78.2186,15.6401,6.64,66,20,11.5,SJ,1699284462
103,mehtar lam,34.6714,70.2094,67.82,33,34,1.79,AF,1699284463
104,wenling,28.3669,121.36,61.36,58,100,9.98,CN,1699284463
105,constantia,44.1833,28.65,65.08,55,0,9.31,RO,1699284246
106,lompoc,34.6391,-120.4579,61.92,88,100,12.66,US,1699284463
107,badger,64.8,-147.5333,19.27,90,100,0.0,US,1699284464
108,iqaluit,63.7506,-68.5145,13.73,72,75,18.41,CA,1699284464
109,vilyuysk,63.7553,121.6247,7.0,83,100,5.99,RU,1699284464
110,haiku-pauwela,20.9219,-156.3051,77.04,65,0,19.57,US,1699284464
111,ghardaia,32.4909,3.6735,90.75,9,43,9.22,DZ,1699284465
112,north ward,-19.2454,146.8075,76.91,73,40,14.97,AU,1699284465
113,toliara,-23.35,43.6667,78.35,73,5,6.98,MG,1699284465
114,ondjiva,-17.0667,15.7333,93.81,11,98,3.65,AO,1699284465
115,sao bernardo,-3.3614,-42.4178,100.9,29,68,6.17,BR,1699284466
116,ancud,-41.8697,-73.8203,53.1,94,100,10.4,CL,1699284466
117,ao luek,8.378,98.7212,77.13,91,72,4.18,TH,1699284466
118,wynyard,-41.0,145.7167,54.46,88,55,13.2,AU,1699284466
119,shimoda,34.6667,138.95,70.11,90,100,20.83,JP,1699284467
120,udachny,66.4167,112.4,-2.04,100,86,4.07,RU,1699284467
121,namibe,-15.1961,12.1522,77.04,52,71,12.46,AO,1699284467
122,port hueneme,34.1478,-119.1951,65.21,82,0,5.75,US,1699284467
123,kingston,17.997,-76.7936,90.55,58,20,5.75,JM,1699284451
124,iskateley,67.6803,53.1512,35.02,100,100,20.0,RU,1699284464
125,vadso,70.0744,29.7487,32.88,86,75,6.91,NO,1699284468
126,floro,61.5996,5.0328,46.47,70,20,0.0,NO,1699284468
127,permet,40.2336,20.3517,66.52,74,96,2.33,AL,1699284469
128,chandbali,20.7833,86.7667,77.36,72,100,4.72,IN,1699284469
129,kayangel,8.0823,134.7173,83.77,72,8,4.18,PW,1699284469
130,sokolka,53.4072,23.5023,49.68,80,100,17.11,PL,1699284470
131,santa sylvina,-27.8326,-61.1375,91.06,32,0,9.33,AR,1699284470
132,gorontalo,0.5412,123.0595,76.1,95,100,2.64,ID,1699284470
133,biala podlaska,52.0324,23.1165,50.9,71,73,17.74,PL,1699284470
134,lagoa,39.05,-27.9833,61.18,62,2,12.41,PT,1699284470
135,dourados,-22.2211,-54.8056,88.57,25,1,7.92,BR,1699284471
136,tiksi,71.6872,128.8694,-10.48,98,40,7.05,RU,1699284471
137,lamarque,-39.423,-65.7021,84.16,27,39,14.5,AR,1699284471
138,luganville,-15.5333,167.1667,77.63,83,99,10.6,VU,1699284471
139,san patricio,28.017,-97.5169,82.26,70,100,11.39,US,1699284472
140,hadibu,12.65,54.0333,80.85,74,97,6.33,YE,1699284472
141,kings mountain,35.2451,-81.3412,65.82,43,0,3.44,US,1699284472
142,komotini,41.1228,25.3964,71.06,81,7,5.64,GR,1699284472
143,aleksandrovsk-sakhalinskiy,50.8975,142.1561,25.57,53,100,9.91,RU,1699284473
144,tsiombe,-25.3,45.4833,74.53,75,31,14.74,MG,1699284473
145,fortaleza,-3.7227,-38.5247,89.73,56,40,18.41,BR,1699284433
146,olonkinbyen,70.9221,-8.7187,30.83,69,100,20.38,SJ,1699284473
147,wagar,16.1525,36.2032,95.22,27,70,6.44,SD,1699284473
148,acapulco de juarez,16.8634,-99.8901,82.11,73,49,2.53,MX,1699284465
149,uturoa,-16.7333,-151.4333,78.24,82,34,11.9,PF,1699284474
150,shamva,-17.3116,31.5756,93.42,18,18,8.32,ZW,1699284474
151,mersa matruh,31.3525,27.2453,75.94,67,0,11.45,EG,1699284474
152,arraial do cabo,-22.9661,-42.0278,75.06,57,75,12.66,BR,1699284475
153,luancheng,37.8792,114.6517,33.96,34,0,5.93,CN,1699284475
154,itamaraca,-7.7478,-34.8256,87.85,61,95,10.18,BR,1699284476
155,crane,31.3974,-102.3501,67.55,45,74,5.68,US,1699284477
156,abepura,-2.6333,140.5833,76.01,83,20,3.44,ID,1699284477
157,ipora,-16.4419,-51.1178,96.85,27,65,7.2,BR,1699284477
158,pacific grove,36.6177,-121.9166,59.43,95,100,6.91,US,1699284477
159,okha,53.5739,142.9478,19.98,82,92,2.91,RU,1699284478
160,es castell,39.8795,4.2854,65.08,63,20,5.75,ES,1699284478
161,leer,53.2316,7.461,50.95,90,100,1.01,DE,1699284478
162,hermanus,-34.4187,19.2345,65.03,74,100,19.26,ZA,1699284478
163,polyarnyy,69.1989,33.4478,33.8,84,94,9.17,RU,1699284479
164,punta arenas,-53.15,-70.9167,55.51,47,0,13.8,CL,1699284479
165,al bawiti,28.3492,28.8659,83.39,17,0,10.22,EG,1699284479
166,tazovsky,67.4667,78.7,-3.1,99,91,6.78,RU,1699284480
167,margaret river,-33.95,115.0667,57.6,86,5,10.09,AU,1699284480
168,as sulayyil,20.4607,45.5779,88.05,29,83,9.04,SA,1699284480
169,bubaque,11.2833,-15.8333,84.16,75,48,8.05,GW,1699284480
170,santa cruz del norte,23.1539,-81.9236,78.26,71,99,17.6,CU,1699284481
171,xiuyan,40.2928,123.2744,23.31,75,83,16.2,CN,1699284481
172,hasaki,35.7333,140.8333,72.0,82,100,30.27,JP,1699284481
173,klaksvik,62.2266,-6.589,45.52,84,100,12.82,FO,1699284482
174,baiti,13.745,-14.7482,99.48,22,100,3.49,SN,1699284482
175,tura,25.5198,90.2201,66.49,89,0,3.56,IN,1699284482
176,singrauli,24.1997,82.6753,69.85,44,22,2.8,IN,1699284482
177,rongelap,11.1635,166.8941,82.44,74,100,22.28,MH,1699284483
178,carnarvon,-24.8667,113.6333,70.18,82,98,20.09,AU,1699284483
179,jamestown,42.097,-79.2353,51.39,66,0,6.91,US,1699284483
180,vilyuchinsk,52.9306,158.4028,24.93,75,26,5.61,RU,1699284485
181,san lorenzo de esmeraldas,1.2883,-78.8369,77.67,84,100,4.18,EC,1699284485
182,midland,31.9974,-102.0779,69.8,63,0,9.22,US,1699284476
183,al muwayh,22.4333,41.7583,72.77,53,74,19.66,SA,1699284486
184,alofi,-19.0595,-169.9187,73.29,83,98,8.05,NU,1699284486
185,happy valley-goose bay,53.3168,-60.3315,30.51,51,75,27.63,CA,1699284486
186,nova sintra,14.8667,-24.7167,74.68,75,98,19.22,CV,1699284487
187,polatli,39.5772,32.1413,64.67,47,1,5.12,TR,1699284487
188,puerto ayora,-0.7393,-90.3518,82.36,84,96,8.99,EC,1699284487
189,holualoa,19.6228,-155.9522,71.78,77,0,4.61,US,1699284488
190,sienna plantation,29.4861,-95.508,77.22,81,0,3.44,US,1699284488
191,illizi,26.4833,8.4667,94.8,7,0,9.22,DZ,1699284488
192,pagar alam,-4.0167,103.2667,70.09,96,56,1.9,ID,1699284488
193,gamba,-2.65,10.0,81.07,80,92,10.78,GA,1699284489
194,karratha,-20.7377,116.8463,88.61,48,100,13.04,AU,1699284489
195,vorgashor,67.5833,63.95,22.51,94,100,15.79,RU,1699284489
196,ribeira grande,38.5167,-28.7,66.6,52,20,11.01,PT,1699284489
197,keflavik,64.0049,-22.5624,40.91,65,100,10.36,IS,1699284490
198,red chute,32.556,-93.6132,67.89,77,20,9.22,US,1699284490
199,loa janan,-0.583,117.095,75.11,97,99,1.63,ID,1699284490
200,newman,37.3138,-121.0208,61.03,81,79,4.0,US,1699284490
201,nobres,-14.7203,-56.3275,100.81,31,27,4.85,BR,1699284491
202,port saint john's,-31.6229,29.5448,75.43,79,88,7.18,ZA,1699284491
203,prince albert,53.2001,-105.7677,28.35,93,100,16.11,CA,1699284491
204,jinxiang,27.4327,120.6062,68.09,71,100,10.02,CN,1699284491
205,conduaga,8.862,117.4893,80.24,83,59,1.61,PH,1699284492
206,port alfred,-33.5906,26.891,64.18,97,100,1.99,ZA,1699284492
207,fale old settlement,-9.3852,-171.2468,82.04,78,98,11.68,TK,1699284385
208,port macquarie,-31.4333,152.9167,56.89,88,99,1.99,AU,1699284426
209,izazi,-7.2,35.7333,82.92,52,95,8.25,TZ,1699284493
210,portland,45.5234,-122.6762,53.1,95,100,15.01,US,1699284212
211,maracacume,-2.0428,-45.9592,90.79,48,75,4.56,BR,1699284493
212,mahina,-17.5065,-149.489,74.97,88,75,2.3,PF,1699284493
213,dwarka,22.2394,68.9678,84.69,44,54,4.52,IN,1699284493
214,saldanha,-33.0117,17.9442,69.85,76,47,10.98,ZA,1699284494
215,cafayate,-26.073,-65.9761,81.37,22,0,10.04,AR,1699284494
216,carrigaline,51.8117,-8.3986,51.55,71,40,16.11,IE,1699284494
217,rock springs,41.5875,-109.2029,40.44,67,75,3.44,US,1699284462
218,bamboo flat,11.7,92.7167,82.51,79,99,5.66,IN,1699284495
219,el nido,11.1858,119.3956,82.74,78,53,10.74,PH,1699284203
220,pitiquito,30.7,-112.0833,77.52,36,0,3.33,MX,1699284495
221,nantucket,41.2835,-70.0995,51.94,79,100,12.66,US,1699284496
222,tongchuanshi,35.0806,109.0897,44.89,37,0,1.39,CN,1699284496
223,atherton,53.5237,-2.4935,50.29,92,80,1.99,GB,1699284496
224,bay roberts,47.5999,-53.2648,38.34,53,90,8.99,CA,1699284496
225,san antonio de pale,-1.4014,5.6325,79.54,81,57,12.21,GQ,1699284497
226,rizal,15.7118,121.1061,75.9,92,46,5.66,PH,1699284497
227,kailua-kona,19.6406,-155.9956,75.51,77,0,4.61,US,1699284497
228,erbil,36.1926,44.0106,69.62,56,2,5.75,IQ,1699284242
229,kajaani,64.2273,27.7285,33.85,100,100,2.3,FI,1699284498
230,north bend,43.4065,-124.2243,53.92,93,75,13.8,US,1699284311
231,stutterheim,-32.5708,27.424,67.46,85,100,7.83,ZA,1699284498
232,tekirdag,40.978,27.5085,70.95,68,73,7.45,TR,1699284499
233,makokou,0.5738,12.8642,80.55,79,83,1.45,GA,1699284499
234,alice springs,-23.7,133.8833,67.55,21,6,0.0,AU,1699284499
235,chernyshevskiy,63.0128,112.4714,5.04,99,100,2.75,RU,1699284500
236,port blair,11.6667,92.75,82.54,79,98,5.95,IN,1699284500
237,parnu,58.3859,24.4971,44.69,100,100,4.61,EE,1699284500
238,paphos,34.7667,32.4167,74.98,78,20,6.91,CY,1699284500
239,sisimiut,66.9395,-53.6735,23.74,75,100,8.66,GL,1699284389
240,antalaha,-14.9003,50.2788,77.59,77,5,8.32,MG,1699284501
241,riohacha,11.5444,-72.9072,87.91,74,20,6.91,CO,1699284501
242,egilsstadir,65.2653,-14.3948,33.71,100,100,17.27,IS,1699284501
243,bunia,1.5667,30.25,72.03,77,34,5.55,CD,1699284502
244,aykhal,66.0,111.5,-0.96,100,99,3.87,RU,1699284502
245,medina de rioseco,41.8833,-5.0441,53.51,45,70,13.98,ES,1699284502
246,dongola,19.1667,30.4833,96.04,17,0,10.65,SD,1699284502
247,cabedelo,-6.9811,-34.8339,88.47,61,100,12.03,BR,1699284489
248,christchurch,-43.5333,172.6333,42.33,88,75,1.14,NZ,1699284414
249,victorica,-36.2151,-65.4359,84.16,28,98,14.97,AR,1699284503
250,tlaltenango de sanchez roman,21.7833,-103.3167,65.61,30,58,2.84,MX,1699284503
251,vrontados,38.4089,26.1328,73.26,73,20,5.75,GR,1699284504
252,deqen,29.9618,90.7188,33.66,51,47,1.83,CN,1699284504
253,new norfolk,-42.7826,147.0587,51.3,98,3,2.64,AU,1699284504
254,novoutkinsk,56.993,59.5571,28.92,82,0,4.05,RU,1699284504
255,vila franca do campo,37.7167,-25.4333,64.81,55,27,2.82,PT,1699284504
256,ribeira brava,32.65,-17.0667,71.13,42,41,7.49,PT,1699284505
257,chibougamau,49.9168,-74.3659,22.62,74,75,9.22,CA,1699284505
258,wuhai,39.6647,106.8122,37.17,25,0,4.65,CN,1699284505
259,torghay,49.6339,63.4981,45.79,50,88,9.08,KZ,1699284505
260,chonchi,-42.6128,-73.8092,56.41,77,73,6.4,CL,1699284506
261,yigo village,13.5361,144.8886,79.92,86,20,9.22,GU,1699284506
262,itaituba,-4.2761,-55.9836,104.22,29,52,3.47,BR,1699284506
263,east london,-33.0153,27.9116,70.41,90,100,9.53,ZA,1699284506
264,la ferte-bernard,48.1863,0.6536,55.02,86,84,15.05,FR,1699284507
265,zyryanskoye,56.8306,86.6258,22.26,95,100,9.28,RU,1699284507
266,sao paulo de olivenca,-3.3783,-68.8725,86.61,71,77,2.91,BR,1699284507
267,kourou,5.1552,-52.6478,91.45,61,44,11.21,GF,1699284507
268,fortuna,40.5982,-124.1573,56.66,93,0,0.0,US,1699284508
269,zhenjiang,32.2092,119.4342,49.8,72,1,4.74,CN,1699284508
270,akureyri,65.6835,-18.0878,31.93,93,100,5.75,IS,1699284508
271,darwin,-12.4611,130.8418,82.38,84,98,5.75,AU,1699284508
272,bealanana,-14.55,48.7333,71.26,72,91,7.47,MG,1699284509
273,porto novo,6.4965,2.6036,85.82,75,100,6.35,BJ,1699284509
274,pyay,18.8167,95.2167,77.32,85,9,4.09,MM,1699284509
275,eksere,36.8134,31.9997,60.42,88,0,2.01,TR,1699284509
276,shchyolkino,45.4291,35.8223,64.56,74,2,10.25,UA,1699284510
277,fort-shevchenko,44.5086,50.263,60.4,77,80,11.3,KZ,1699284510
278,papatowai,-46.5619,169.4708,45.05,88,95,3.53,NZ,1699284510
279,oulunsalo,64.9346,25.4112,34.18,100,100,4.61,FI,1699284510
280,kodinsk,58.6881,99.1844,16.45,97,98,3.2,RU,1699284511
281,kalix,65.853,23.1565,35.33,90,100,0.69,SE,1699284346
282,betio village,1.358,172.9211,83.16,75,100,7.05,KI,1699284511
283,nkhotakota,-12.9274,34.2961,84.88,58,36,11.45,MW,1699284511
284,cidreira,-30.1811,-50.2056,68.05,69,5,15.61,BR,1699284511
285,salinas,36.6777,-121.6555,60.01,95,100,6.91,US,1699284280
286,kavaratti,10.5669,72.642,82.9,75,87,9.62,IN,1699284512
287,revda,56.801,59.9303,29.08,79,0,4.38,RU,1699284512
288,remire-montjoly,4.9167,-52.2667,91.44,62,20,14.97,GF,1699284512
289,ouesso,1.6136,16.0517,87.26,53,100,3.49,CG,1699284513
290,tolanaro,-25.0319,46.9987,75.27,73,40,21.85,MG,1699284513
291,geraldton,-28.7667,114.6,68.41,77,100,12.66,AU,1699284281
292,intibuca,14.3167,-88.1667,67.73,83,75,6.91,HN,1699284513
293,puruandiro,20.0833,-101.5,63.21,57,5,2.19,MX,1699284513
294,waukegan,42.3636,-87.8448,60.89,76,64,20.0,US,1699284514
295,ulsteinvik,62.3432,5.8487,48.76,70,88,1.99,NO,1699284514
296,palmer,42.1584,-72.3287,49.32,55,75,4.61,US,1699284514
297,gargalianoi,37.0667,21.6333,73.35,72,0,7.52,GR,1699284514
298,pimenta bueno,-11.6725,-61.1936,100.38,35,84,1.83,BR,1699284277
299,berga,60.392,5.328,48.87,87,40,2.3,NO,1699284515
300,bam,29.106,58.357,69.08,44,63,6.78,IR,1699284515
301,jha-jha,24.7667,86.3667,72.63,41,1,2.75,IN,1699284515
302,okhotsk,59.3833,143.3,1.6,83,0,19.71,RU,1699284516
303,reggane,26.7158,0.1714,97.18,7,30,13.31,DZ,1699284516
304,oyem,1.5995,11.5793,75.97,91,91,3.04,GA,1699284516
305,palikir - national government center,6.9248,158.1611,79.54,89,40,4.61,FM,1699284516
306,tahlequah,35.9154,-94.97,71.82,37,0,10.36,US,1699284278
307,songkhla,6.8333,100.6667,80.65,93,78,2.3,TH,1699284517
308,angaur state,6.906,134.13,82.65,73,7,1.92,PW,1699284261
309,uaua,-9.8414,-39.4817,90.77,40,93,10.29,BR,1699284517
310,larbaa,36.5647,3.1543,68.85,52,75,12.66,DZ,1699284518
311,taroa,8.7058,171.2275,82.56,75,97,20.47,MH,1699284518
312,atafu village,-8.5421,-172.5159,82.29,77,100,7.67,TK,1699284385
313,galveston,29.3669,-94.9669,77.14,84,0,8.05,US,1699284385
314,zahedan,29.4963,60.8629,58.91,77,20,4.61,IR,1699284519
315,antofagasta,-23.65,-70.4,65.48,63,29,8.55,CL,1699284519
316,shahpura,27.3833,75.9667,79.2,27,92,3.96,IN,1699284519
317,zamosc,50.7231,23.252,50.61,71,55,16.53,PL,1699284519
318,chui,-33.6971,-53.4616,70.05,58,0,9.37,UY,1699284520
319,callaway,30.153,-85.5699,73.94,51,7,1.01,US,1699284520
320,yingkou,40.6648,122.2283,26.47,71,76,11.77,CN,1699284520
321,noumea,-22.2763,166.4572,64.38,78,49,8.01,NC,1699284479
322,uttarkashi,30.7333,78.45,57.36,67,13,4.32,IN,1699284521
323,plymouth,41.8334,-70.8328,52.05,71,100,8.05,US,1699284521
324,souillac,-20.5167,57.5167,73.78,94,75,11.5,MU,1699284521
325,taoudenni,22.6783,-3.9836,97.14,10,1,4.94,ML,1699284522
326,moapa valley,36.5805,-114.4703,61.72,20,100,1.07,US,1699284522
327,cabeza del buey,38.7223,-5.2195,56.26,49,4,9.35,ES,1699284523
328,linares,-35.85,-71.6,61.3,71,100,3.91,CL,1699284523
329,aldinga beach,-35.2793,138.4604,60.76,92,41,8.46,AU,1699284524
330,lycksele,64.5954,18.6735,31.87,93,100,0.0,SE,1699284524
331,imbituba,-28.24,-48.6703,70.56,60,35,10.07,BR,1699284524
332,ungsang-nodongjagu,42.3578,130.4622,39.47,70,100,13.0,KP,1699284524
333,kabalo,-6.05,26.9167,70.39,98,100,2.73,CD,1699284525
334,al qusiyah,27.4402,30.8184,86.2,12,0,9.48,EG,1699284525
335,rio grande,-32.035,-52.0986,77.11,64,0,13.31,BR,1699284525
336,kloulklubed,7.0419,134.2556,77.5,76,10,1.72,PW,1699284525
337,whitby,54.4877,-0.615,50.31,86,26,1.99,GB,1699284525
338,harper,4.375,-7.7169,82.24,78,41,8.34,LR,1699284526
339,sumbe,-11.2061,13.8437,81.18,76,92,8.81,AO,1699284526
340,sheboygan,43.7333,-87.9334,60.58,69,75,17.27,US,1699284526
341,klyuchi,52.2667,79.1667,29.34,74,96,9.13,RU,1699284526
342,fort mcmurray,56.7268,-111.381,26.19,93,100,9.22,CA,1699284527
343,olbernhau,50.6667,13.3333,52.48,71,7,12.33,DE,1699284527
344,kone,-21.0595,164.8658,69.42,79,100,5.77,NC,1699284527
345,lorengau,-2.0226,147.2712,81.25,82,67,4.9,PG,1699284527
346,hue,16.4667,107.6,80.71,94,75,1.14,VN,1699284528
347,labytnangi,66.6572,66.4183,21.2,96,100,5.75,RU,1699284528
348,verkhnevilyuysk,63.4453,120.3167,9.16,98,99,2.06,RU,1699284528
349,sittwe,20.15,92.9,78.96,73,69,8.57,MM,1699284528
350,bemidji,47.4736,-94.8803,35.06,100,100,11.5,US,1699284395
351,san jose del guaviare,2.5729,-72.6459,81.43,75,100,5.23,CO,1699284529
352,orthez,43.4884,-0.7724,54.88,69,6,12.57,FR,1699284336
353,kavali,14.9167,79.9833,78.26,85,99,5.66,IN,1699284529
354,byron bay,-28.65,153.6167,59.7,81,33,3.58,AU,1699284529
355,san luis de la loma,17.2706,-100.8939,81.79,73,11,1.12,MX,1699284530
356,beitbridge,-22.2167,30.0,97.72,18,34,13.49,ZW,1699284530
357,kapa'a,22.0752,-159.319,77.32,90,100,14.97,US,1699284530
358,dubbo,-32.25,148.6167,59.13,77,35,8.05,AU,1699284530
359,kapuskasing,49.4169,-82.4331,26.69,93,100,11.5,CA,1699284531
360,mammoth lakes,37.6485,-118.9721,43.52,76,75,34.52,US,1699284478
361,cabo san lucas,22.8909,-109.9124,83.75,71,100,5.01,MX,1699284385
362,qamdo,31.1667,97.2333,28.2,33,3,2.8,CN,1699284531
363,skowhegan,44.7651,-69.7192,40.44,71,61,3.22,US,1699284382
364,debesy,57.6529,53.8049,36.91,85,85,10.69,RU,1699284532
365,khanbari,27.3747,87.2039,59.97,86,16,2.91,NP,1699284532
366,mukalla,14.5425,49.1242,81.27,66,2,4.41,YE,1699284532
367,puerto aysen,-45.4,-72.7,47.62,100,99,3.09,CL,1699284532
368,flying fish cove,-10.4217,105.6791,78.48,88,100,8.05,CX,1699284532
369,sungailiat,-1.85,106.1333,81.97,75,34,2.91,ID,1699284533
370,papao,-17.75,-149.55,74.88,84,57,10.89,PF,1699284533
371,tateyama,34.9833,139.8667,76.1,84,100,28.01,JP,1699284533
372,praia da vitoria,38.7333,-27.0667,66.45,48,20,8.59,PT,1699284534
373,adjumani,3.3779,31.7909,78.31,70,66,1.77,UG,1699284534
374,tofol,5.3248,163.0078,82.69,77,100,15.7,FM,1699284534
375,esquina,-30.0144,-59.5272,82.72,38,0,8.14,AR,1699284534
376,wigton,54.8248,-3.1611,50.65,91,100,10.22,GB,1699284534
377,aral,40.5156,81.2636,51.49,23,83,4.45,CN,1699284535
378,minas de marcona,-15.2119,-75.1103,65.71,61,59,12.91,PE,1699284535
379,lae,-6.7221,146.9847,78.12,86,99,2.19,PG,1699284535
380,hastings,50.8552,0.5729,56.98,26,15,17.63,GB,1699284535
381,binhe,32.6883,112.8275,53.35,55,0,5.3,CN,1699284536
382,xilin hot,43.9667,116.0333,11.1,96,56,4.59,CN,1699284536
383,gobabis,-22.45,18.9667,91.38,9,100,20.47,NA,1699284536
384,grand gaube,-20.0064,57.6608,76.37,73,53,3.0,MU,1699284536
385,sinop,41.7711,34.8709,58.57,79,60,4.14,TR,1699284536
386,buala,-8.145,159.5921,79.21,86,100,3.42,SB,1699284537
387,shahrud,36.4182,54.9763,59.05,48,36,4.74,IR,1699284537
388,kolonia,50.9333,6.95,56.97,65,75,13.8,DE,1699284251
389,simanggang,1.2472,111.4528,78.78,94,100,0.0,MY,1699284537
390,luwuk,-0.9516,122.7875,78.35,80,79,3.89,ID,1699284538
391,gulf shores,30.246,-87.7008,75.29,62,0,5.75,US,1699284538
392,raduzhny,62.0961,77.475,9.52,97,89,1.66,RU,1699284538
393,bandarbeyla,9.4942,50.8122,80.02,83,7,11.03,SO,1699284538
394,araguaina,-7.1911,-48.2072,91.71,50,99,3.38,BR,1699284446
395,touros,-5.1989,-35.4608,86.63,54,75,13.09,BR,1699284494
396,kodiak,57.79,-152.4072,22.51,74,20,3.44,US,1699284539
397,xiazhuang,34.9161,118.6389,43.63,39,0,3.96,CN,1699284539
398,mount gambier,-37.8333,140.7667,49.84,96,2,2.64,AU,1699284539
399,yarkovo,57.4028,67.0786,31.77,81,100,8.63,RU,1699284540
400,guerrero negro,27.9769,-114.0611,69.93,56,0,5.08,MX,1699284540
401,kill devil hills,36.0307,-75.676,67.98,72,0,6.91,US,1699284540
402,enriquillo,17.9,-71.2333,87.48,66,22,9.13,DO,1699284540
403,mlimba,-8.8,35.8167,83.75,64,84,9.15,TZ,1699284541
404,santa elena de uairen,4.6167,-61.1333,85.23,46,85,7.78,VE,1699284541
405,tirebolu,41.0069,38.8139,65.73,80,75,8.57,TR,1699284541
406,usinsk,65.9939,57.5281,31.06,97,100,18.99,RU,1699284541
407,rawson,-43.3002,-65.1023,74.89,26,100,23.76,AR,1699284542
408,sao tome,0.3365,6.7273,81.64,81,61,8.9,ST,1699284542
409,castanos,26.7833,-101.4167,65.79,40,40,4.61,MX,1699284542
410,burang,30.25,81.1667,31.95,85,79,4.7,CN,1699284542
411,stettler,52.3168,-112.7186,26.35,100,15,8.05,CA,1699284543
412,codrington,-38.2667,141.9667,55.2,92,5,7.31,AU,1699284543
413,belyy yar,53.6039,91.3903,24.69,63,0,13.42,RU,1699284543
414,don luan,11.5333,106.9167,74.95,94,100,1.77,VN,1699284544
415,kimberley,-28.7323,24.7623,89.29,27,40,19.57,ZA,1699284544
416,idri,27.5,13.2667,89.26,11,0,6.85,LY,1699284545
417,nazarovo,56.0064,90.3914,23.14,83,100,11.01,RU,1699284545
418,borovskoy,53.8,64.15,34.11,64,0,8.14,KZ,1699284545
419,wangaratta,-36.3667,146.3333,62.31,88,85,4.07,AU,1699284545
420,mizdah,31.4451,12.9801,86.13,14,0,1.39,LY,1699284546
421,fort st. john,56.2499,-120.8529,28.29,100,100,5.75,CA,1699284470
422,paris,48.8534,2.3488,56.52,75,40,14.97,FR,1699284302
423,grand-bourg,15.8835,-61.3148,86.2,77,81,17.4,GP,1699284547
424,nikolayevsk-on-amure,53.1406,140.73,10.27,86,22,2.15,RU,1699284547
425,tommot,58.9564,126.2925,-9.99,97,43,1.63,RU,1699284547
426,xinyuan,37.3,99.0,22.42,35,87,4.63,CN,1699284547
427,port lincoln,-34.7333,135.8667,55.27,87,0,11.34,AU,1699284548
428,petauke,-14.2426,31.3253,89.82,24,82,6.29,ZM,1699284548
429,pleiku,13.9833,108.0,68.52,96,100,5.84,VN,1699284548
430,kotido,2.9806,34.1331,79.84,50,91,8.3,UG,1699284548
431,mana,5.6592,-53.7767,88.05,66,77,12.55,GF,1699284549
432,villa gesell,-37.2639,-56.973,76.05,51,1,7.65,AR,1699284549
433,wladyslawowo,54.7909,18.4009,51.93,84,100,25.55,PL,1699284549
434,tari,12.4086,4.4914,101.01,13,6,9.15,NG,1699284550
435,yangjiang,21.85,111.9667,73.31,70,51,7.81,CN,1699284444
436,shakiso,5.75,38.9167,60.19,97,100,1.95,ET,1699284550
437,pangody,65.85,74.4859,12.18,95,100,7.94,RU,1699284550
438,bengkulu,-3.8004,102.2655,75.9,95,93,3.02,ID,1699284551
439,ca mau,9.1769,105.15,77.47,92,100,4.43,VN,1699284551
440,cannonvale,-20.2833,148.7,74.59,71,17,16.8,AU,1699284551
441,concepcion del uruguay,-32.4825,-58.2372,79.99,42,0,4.0,AR,1699284552
442,howrah,22.5892,88.3103,78.8,65,20,0.0,IN,1699284552
443,armacao de buzios,-22.7469,-41.8817,75.25,65,16,16.49,BR,1699284552
444,ruy barbosa,-12.2839,-40.4939,78.96,74,100,3.89,BR,1699284552
445,nagqu,31.5,92.0,12.76,86,2,2.48,CN,1699284553
446,celinac,44.7228,17.3278,65.07,59,18,5.08,BA,1699284553
447,la'ie,21.6477,-157.9253,78.46,81,76,8.01,US,1699284553
448,lata,40.1629,-8.3327,57.07,72,30,7.87,PT,1699284554
449,coruripe,-10.1256,-36.1756,86.11,58,63,14.72,BR,1699284554
450,megara,38.0,23.3456,78.37,57,20,9.22,GR,1699284554
451,vicksburg,32.3526,-90.8779,71.83,28,0,8.05,US,1699284554
452,fayroz koh,34.5195,65.2509,47.44,66,100,4.54,AF,1699284555
453,tabas,33.5959,56.9244,69.17,35,2,3.51,IR,1699284555
454,santo antonio do ica,-3.1022,-67.9397,90.19,57,92,3.33,BR,1699284555
455,belo sur tsiribihina,-19.7,44.55,80.87,72,38,6.58,MG,1699284555
456,coahuayana de hidalgo,18.7,-103.6583,80.64,67,11,2.13,MX,1699284556
457,luga,58.7372,29.8453,42.62,94,100,2.71,RU,1699284556
458,araxa,-19.5933,-46.9406,86.52,34,61,4.25,BR,1699284556
459,andalgala,-27.5819,-66.3165,87.51,16,0,7.11,AR,1699284557
460,thunder bay,48.4001,-89.3168,37.38,100,100,4.61,CA,1699284480
461,kurchatov,51.6601,35.6521,54.01,84,4,11.95,RU,1699284557
462,san pa tong,18.6283,98.8957,78.91,83,20,2.3,TH,1699284557
463,mulayjah,27.271,48.4242,75.22,29,75,6.55,SA,1699284320
464,timbuktu,16.7735,-3.0074,100.33,11,39,4.56,ML,1699284558
465,moron,-34.6534,-58.6198,78.01,47,0,5.99,AR,1699284558
466,sao luiz gonzaga,-28.4083,-54.9608,78.82,60,0,5.19,BR,1699284558
467,nouadhibou,20.931,-17.0347,80.58,50,89,12.66,MR,1699284559
468,juigalpa,12.1063,-85.3645,85.91,74,40,4.61,NI,1699284559
469,noosa heads,-26.3833,153.15,64.35,82,31,11.54,AU,1699284559
470,al jawf,29.5,38.75,79.81,36,0,5.48,SA,1699284559
471,juneau,58.3019,-134.4197,41.11,97,100,0.0,US,1699284305
472,erenhot,43.6475,111.9767,21.78,75,19,9.86,CN,1699284560
473,cloquet,46.7216,-92.4594,47.68,95,100,10.36,US,1699284560
474,vacaria,-28.5122,-50.9339,71.92,57,2,4.74,BR,1699284560
475,ad dilam,23.9915,47.1627,86.41,28,9,7.94,SA,1699284561
476,motygino,58.1831,94.7592,19.78,90,100,8.99,RU,1699284561
477,wisconsin rapids,44.3836,-89.8174,59.29,67,20,16.11,US,1699284313
478,jayapura,-2.5333,140.7,76.39,89,88,5.53,ID,1699284561
479,troitskiy,57.0603,63.7481,28.36,89,25,5.99,RU,1699284562
480,villa del prado,40.2692,-4.3046,58.32,55,27,6.29,ES,1699284562
481,visakhapatnam,17.69,83.2093,80.08,75,100,6.82,IN,1699284562
482,moroni,-11.7022,43.2551,80.82,78,40,1.5,KM,1699284562
483,severo-yeniseyskiy,60.3725,93.0408,16.57,85,97,8.99,RU,1699284563
484,namdrik,5.5994,168.1028,80.37,85,100,20.45,MH,1699284563
485,majene,-3.5403,118.9707,80.26,80,42,1.45,ID,1699284563
486,hammerfest,70.6634,23.6821,34.25,86,75,10.36,NO,1699284564
487,sunchales,-30.944,-61.5615,83.05,43,0,10.4,AR,1699284564
488,tame,6.461,-71.73,85.33,62,100,3.42,CO,1699284564
489,luderitz,-26.6481,15.1594,65.57,66,0,16.11,NA,1699284564
490,spanish wells,26.323,-81.7957,75.97,60,0,11.5,US,1699284565
491,tobelo,1.7284,128.0095,80.49,82,88,3.96,ID,1699284565
492,manta,-0.95,-80.7333,80.38,69,75,6.91,EC,1699284565
493,adam,22.3756,57.5233,85.48,24,6,7.56,OM,1699284565
494,rawlins,41.7911,-107.2387,44.49,39,0,4.61,US,1699284566
495,andergrove,-21.0833,149.1833,70.65,73,82,13.62,AU,1699284566
496,chifeng,42.2683,118.9636,24.31,79,2,4.5,CN,1699284566
497,pechora,65.1472,57.2244,34.86,92,100,15.01,RU,1699284567
498,laghouat,33.8,2.8651,81.97,11,80,18.59,DZ,1699284567
499,paita,-5.0892,-81.1144,72.01,72,34,10.74,PE,1699284567
500,ponnani,10.767,75.9252,79.92,83,91,2.64,IN,1699284568
501,pitimbu,-7.4706,-34.8086,88.39,62,97,11.36,BR,1699284568
502,oamaru,-45.0784,170.9801,45.37,84,100,6.67,NZ,1699284568
503,morant bay,17.8815,-76.4093,91.02,67,75,5.46,JM,1699284569
504,timimoun,29.2639,0.231,95.38,8,0,17.27,DZ,1699284569
505,vanimo,-2.6741,141.3028,78.87,89,84,6.89,PG,1699284569
506,den burg,53.0542,4.7972,53.98,73,20,19.57,NL,1699284570
507,mount isa,-20.7333,139.5,65.97,27,2,0.0,AU,1699284570
508,whangarei,-35.7317,174.3239,45.5,94,8,3.42,NZ,1699284571
509,masterton,-40.9597,175.6575,45.88,99,100,4.03,NZ,1699284571
510,kinmparana,12.8402,-4.9199,102.87,19,52,7.34,ML,1699284571
511,island harbour,50.724,-1.2758,56.93,80,45,3.0,GB,1699284572
512,at taj,24.2049,23.2857,84.9,12,0,7.9,LY,1699284572
513,copiapo,-27.3667,-70.3333,56.89,40,0,6.76,CL,1699284572
514,troitskoye,52.9821,84.6757,25.66,95,100,12.06,RU,1699284572
515,tulun,54.5611,100.5792,10.27,92,86,3.42,RU,1699284573
516,puerto baquerizo moreno,-0.9,-89.6,81.59,65,40,18.41,EC,1699284573
517,londonderry county borough,54.9972,-7.3092,51.48,87,40,12.66,GB,1699284573
518,greymouth,-42.4667,171.2,44.51,84,8,6.85,NZ,1699284574
519,port moresby,-9.4431,147.1797,74.98,92,79,10.04,PG,1699284515
520,san pedro pochutla,15.7333,-96.4667,85.71,62,100,2.04,MX,1699284574
521,katabu,-4.9333,122.5167,75.42,86,54,3.27,ID,1699284575
522,colonia,50.9333,6.95,56.97,65,75,13.8,DE,1699284319
523,pamukova,40.5081,30.1673,67.48,63,28,2.3,TR,1699284575
524,tshikapa,-6.4167,20.8,77.27,80,98,4.63,CD,1699284575
525,el granada,37.5027,-122.4694,62.85,93,100,10.36,US,1699284576
526,ghanzi,-21.5667,21.7833,88.63,29,73,13.42,BW,1699284576
527,altamont,42.2068,-121.7372,44.44,90,100,6.91,US,1699284576
528,taro,-8.3862,115.28,73.4,95,30,0.16,ID,1699284577
529,broome,42.2506,-75.833,45.45,69,0,5.75,US,1699284577
530,chivilcoy,-34.8957,-60.0167,77.07,44,0,11.36,AR,1699284577
531,piekary slaskie,50.3802,18.9265,52.61,77,0,17.27,PL,1699284577
532,lichuan,30.3,108.85,49.69,94,2,2.82,CN,1699284578
533,qui nhon,13.7667,109.2333,78.53,87,100,5.21,VN,1699284578
534,east ballina,-28.8667,153.5833,59.79,77,53,2.89,AU,1699284578
535,stjordalshalsen,63.4681,10.9262,36.91,86,0,3.44,NO,1699284578
536,labuan,5.2767,115.2417,80.96,94,20,0.0,MY,1699284579
537,toppenish,46.3774,-120.3087,48.02,80,100,0.43,US,1699284579
538,adrar,20.5022,-10.0711,89.2,17,0,8.3,MR,1699284579
539,superior,46.7208,-92.1041,49.77,90,100,14.97,US,1699284580
540,sombrerete,23.6333,-103.65,58.53,42,100,2.91,MX,1699284580
541,sao gabriel da cachoeira,-0.1303,-67.0892,88.09,64,99,1.99,BR,1699284581
542,fort beaufort,-32.7748,26.6338,67.91,87,100,10.49,ZA,1699284581
543,takoradi,4.8845,-1.7554,84.22,74,47,8.88,GH,1699284581
544,sao desiderio,-12.3633,-44.9733,89.78,47,100,5.84,BR,1699284581
545,camana,-16.6228,-72.7111,71.01,68,82,11.01,PE,1699284582
546,tabou,4.423,-7.3528,82.31,79,40,8.08,CI,1699284582
547,sirmaur,24.85,81.3833,73.31,35,43,3.33,IN,1699284582
548,susuman,62.7833,148.1667,-7.13,93,100,1.21,RU,1699284583
549,bulayevo,54.9056,70.4439,31.3,74,82,10.4,KZ,1699284583
550,tangalle,6.024,80.7911,77.16,88,100,2.86,LK,1699284583
551,mbala,-8.8402,31.3659,66.02,86,93,5.21,ZM,1699284583
552,clearwater,27.9659,-82.8001,76.1,51,0,3.0,US,1699284583
553,dul'durga,50.6761,113.5931,14.43,65,100,2.62,RU,1699284584
554,ouarzazat,30.9189,-6.8934,79.09,21,20,2.3,MA,1699284584
555,kasulu,-4.5767,30.1025,68.52,86,99,1.74,TZ,1699284584
556,berezovyy,51.6667,135.7,14.67,59,86,4.09,RU,1699284585
557,umaria,23.5333,80.8333,68.31,44,3,1.3,IN,1699284585
558,poronaysk,49.2167,143.1167,27.97,95,100,16.82,RU,1699284585
559,voznesensk,47.5649,31.3308,59.07,53,2,9.01,UA,1699284585
560,arvayheer,46.2639,102.775,17.17,43,77,17.4,MN,1699284586
561,kisiwani,-4.1333,37.95,77.27,77,81,7.07,TZ,1699284586
562,metsamor,40.073,44.2896,62.04,54,19,0.0,AM,1699284586
563,parabel',58.6978,81.4825,16.92,96,47,5.01,RU,1699284586
564,hailey,43.5196,-114.3153,39.06,93,100,8.05,US,1699284586
565,yanbu,24.0891,38.0637,91.44,49,20,6.91,SA,1699284587
566,kirensk,57.7853,108.1119,19.96,84,100,3.0,RU,1699284587
567,irymple,-34.25,142.1667,70.59,24,100,10.13,AU,1699284588
568,jastrebarsko,45.6683,15.6486,64.76,100,39,7.34,HR,1699284588
569,forster,-32.1667,152.5167,57.38,100,100,5.39,AU,1699284588
570,manturovo,58.3353,44.7619,42.78,89,94,9.51,RU,1699284588
571,west bay,19.3667,-81.4167,86.07,76,75,13.8,KY,1699284588
572,hami,42.8,93.45,40.28,20,44,8.01,CN,1699284589
573,abashiri,44.0213,144.2697,58.17,91,100,12.1,JP,1699284589
